header: 
  seq: 239
  stamp: 
    secs: 754
    nsecs:  19000000
  frame_id: "world"
pose: 
  position: 
    x: 0.00010930866847
    y: -0.000109105232696
    z: -1.82527783181e-05
  orientation: 
    x: -8.88301942277e-05
    y: -5.32778973781e-05
    z: 2.26449809452e-05
    w: 0.999999994379
---
header: 
  seq: 240
  stamp: 
    secs: 754
    nsecs: 479000000
  frame_id: "world"
pose: 
  position: 
    x: 5.47723429918e-05
    y: -7.95893793111e-05
    z: -2.20939837163e-05
  orientation: 
    x: -5.35772232041e-05
    y: -2.31011944884e-05
    z: 9.95623848287e-06
    w: 0.999999998248
---
header: 
  seq: 241
  stamp: 
    secs: 754
    nsecs: 830000000
  frame_id: "world"
pose: 
  position: 
    x: 5.45999391761e-05
    y: -7.95206506154e-05
    z: -2.2126832846e-05
  orientation: 
    x: -5.35389807711e-05
    y: -2.30134646297e-05
    z: 9.92515741103e-06
    w: 0.999999998253
---
header: 
  seq: 242
  stamp: 
    secs: 755
    nsecs:  85000000
  frame_id: "world"
pose: 
  position: 
    x: 5.45955590496e-05
    y: -7.95171072241e-05
    z: -2.21170666919e-05
  orientation: 
    x: -5.35380967423e-05
    y: -2.30143941333e-05
    z: 9.92642615613e-06
    w: 0.999999998253
---
header: 
  seq: 243
  stamp: 
    secs: 755
    nsecs: 311000000
  frame_id: "world"
pose: 
  position: 
    x: 1.98775160243e-06
    y: -3.97316944145e-05
    z: -2.62789762928e-05
  orientation: 
    x: -2.25222774985e-05
    y: 3.32342983625e-06
    z: -5.29003557266e-07
    w: 0.999999999741
---
header: 
  seq: 244
  stamp: 
    secs: 755
    nsecs: 684000000
  frame_id: "world"
pose: 
  position: 
    x: 8.95521734492e-05
    y: -0.000121405879327
    z: -2.30830883083e-05
  orientation: 
    x: -8.73084496e-05
    y: -4.17452390859e-05
    z: 1.59210903037e-05
    w: 0.999999995191
---
header: 
  seq: 245
  stamp: 
    secs: 756
    nsecs:  28000000
  frame_id: "world"
pose: 
  position: 
    x: 1.13201906515e-06
    y: -4.28554922109e-05
    z: -2.6924893973e-05
  orientation: 
    x: -2.43787981088e-05
    y: 3.66633889714e-06
    z: 1.01609272076e-08
    w: 0.999999999696
---
header: 
  seq: 246
  stamp: 
    secs: 756
    nsecs: 401000000
  frame_id: "world"
pose: 
  position: 
    x: 0.000109080596303
    y: -0.000109153363155
    z: -1.86698125617e-05
  orientation: 
    x: -8.88917197252e-05
    y: -5.31200272888e-05
    z: 2.26732080227e-05
    w: 0.999999994381
---
header: 
  seq: 247
  stamp: 
    secs: 756
    nsecs: 765000000
  frame_id: "world"
pose: 
  position: 
    x: 5.47574709344e-05
    y: -7.93853832874e-05
    z: -2.22843827942e-05
  orientation: 
    x: -5.34782156114e-05
    y: -2.3028353058e-05
    z: 9.91818704368e-06
    w: 0.999999998256
---
header: 
  seq: 248
  stamp: 
    secs: 757
    nsecs:   2000000
  frame_id: "world"
pose: 
  position: 
    x: 5.47210438526e-05
    y: -7.93652288849e-05
    z: -2.22928338189e-05
  orientation: 
    x: -5.34692952874e-05
    y: -2.30117002101e-05
    z: 9.92006787872e-06
    w: 0.999999998257
---
header: 
  seq: 249
  stamp: 
    secs: 757
    nsecs: 230000000
  frame_id: "world"
pose: 
  position: 
    x: 5.47445852135e-05
    y: -7.93807048467e-05
    z: -2.22968283197e-05
  orientation: 
    x: -5.34753961778e-05
    y: -2.30205550505e-05
    z: 9.91978320688e-06
    w: 0.999999998256
---
header: 
  seq: 250
  stamp: 
    secs: 757
    nsecs: 476000000
  frame_id: "world"
pose: 
  position: 
    x: 5.45270959265e-05
    y: -7.93479339336e-05
    z: -2.22278413275e-05
  orientation: 
    x: -5.3458403179e-05
    y: -2.29326996815e-05
    z: 9.91809700373e-06
    w: 0.999999998259
---
header: 
  seq: 251
  stamp: 
    secs: 757
    nsecs: 804000000
  frame_id: "world"
pose: 
  position: 
    x: 2.81189613816e-06
    y: -4.19764510298e-05
    z: -2.70782766165e-05
  orientation: 
    x: -2.39854962204e-05
    y: 2.96774851363e-06
    z: 5.77899363749e-08
    w: 0.999999999708
---
header: 
  seq: 252
  stamp: 
    secs: 758
    nsecs: 106000000
  frame_id: "world"
pose: 
  position: 
    x: 5.47024137632e-05
    y: -7.93611689005e-05
    z: -2.22328126256e-05
  orientation: 
    x: -5.34704157849e-05
    y: -2.30006953242e-05
    z: 9.90931583238e-06
    w: 0.999999998257
---
header: 
  seq: 253
  stamp: 
    secs: 758
    nsecs: 377000000
  frame_id: "world"
pose: 
  position: 
    x: 3.21663969771e-06
    y: -3.92418369302e-05
    z: -2.64701156993e-05
  orientation: 
    x: -2.23360657344e-05
    y: 2.80008134652e-06
    z: -5.13791576265e-07
    w: 0.999999999746
---
header: 
  seq: 254
  stamp: 
    secs: 758
    nsecs: 741000000
  frame_id: "world"
pose: 
  position: 
    x: 0.000109204200271
    y: -0.000109077482193
    z: -1.86704128282e-05
  orientation: 
    x: -8.88627977938e-05
    y: -5.31718612106e-05
    z: 2.2651887648e-05
    w: 0.999999994382
---
header: 
  seq: 255
  stamp: 
    secs: 759
    nsecs:  46000000
  frame_id: "world"
pose: 
  position: 
    x: 2.74629928754e-06
    y: -4.18407362304e-05
    z: -2.69867796305e-05
  orientation: 
    x: -2.39072487533e-05
    y: 2.98349959762e-06
    z: 1.86216524813e-07
    w: 0.99999999971
---
header: 
  seq: 256
  stamp: 
    secs: 759
    nsecs: 328000000
  frame_id: "world"
pose: 
  position: 
    x: 2.74681997325e-06
    y: -4.18298513978e-05
    z: -2.69289903372e-05
  orientation: 
    x: -2.39007476852e-05
    y: 2.9797183734e-06
    z: 1.83630476105e-07
    w: 0.99999999971
---
header: 
  seq: 257
  stamp: 
    secs: 759
    nsecs: 685000000
  frame_id: "world"
pose: 
  position: 
    x: 2.37029371419e-06
    y: -3.91187131754e-05
    z: -2.66322313109e-05
  orientation: 
    x: -2.2290831106e-05
    y: 3.18494517079e-06
    z: -3.71738195687e-07
    w: 0.999999999746
---
header: 
  seq: 258
  stamp: 
    secs: 759
    nsecs: 835000000
  frame_id: "world"
pose: 
  position: 
    x: 2.17356114263e-06
    y: -3.96245122829e-05
    z: -2.65310991381e-05
  orientation: 
    x: -2.25438470748e-05
    y: 3.29495855936e-06
    z: -4.66627795837e-07
    w: 0.99999999974
---
header: 
  seq: 259
  stamp: 
    secs: 760
    nsecs: 310000000
  frame_id: "world"
pose: 
  position: 
    x: 8.91036470421e-05
    y: -0.000124118043459
    z: -3.54232688551e-05
  orientation: 
    x: -8.90822698463e-05
    y: -3.93778607667e-05
    z: 1.48081325469e-05
    w: 0.999999995147
---
header: 
  seq: 260
  stamp: 
    secs: 760
    nsecs: 786000000
  frame_id: "world"
pose: 
  position: 
    x: 1.73221633304e-06
    y: -4.1735915147e-05
    z: -2.720367047e-05
  orientation: 
    x: -2.38755837857e-05
    y: 3.51901007786e-06
    z: 2.97148090935e-07
    w: 0.999999999709
---
header: 
  seq: 261
  stamp: 
    secs: 761
    nsecs: 182000000
  frame_id: "world"
pose: 
  position: 
    x: 1.77899744358e-06
    y: -4.17191440647e-05
    z: -2.71675016847e-05
  orientation: 
    x: -2.3866952681e-05
    y: 3.4982508613e-06
    z: 2.95225561245e-07
    w: 0.999999999709
---
header: 
  seq: 262
  stamp: 
    secs: 761
    nsecs: 396000000
  frame_id: "world"
pose: 
  position: 
    x: 8.9028988441e-05
    y: -0.000124085374409
    z: -3.54089206667e-05
  orientation: 
    x: -8.90651567943e-05
    y: -3.93468360837e-05
    z: 1.4813866911e-05
    w: 0.99999999515
---
header: 
  seq: 263
  stamp: 
    secs: 761
    nsecs: 746000000
  frame_id: "world"
pose: 
  position: 
    x: 1.84864961739e-06
    y: -4.17114097218e-05
    z: -2.71880253422e-05
  orientation: 
    x: -2.38609245501e-05
    y: 3.46845581488e-06
    z: 2.97733777102e-07
    w: 0.999999999709
---
header: 
  seq: 264
  stamp: 
    secs: 762
    nsecs:   7000000
  frame_id: "world"
pose: 
  position: 
    x: 2.10045641325e-06
    y: -4.00577555411e-05
    z: -2.68634885288e-05
  orientation: 
    x: -2.27770487921e-05
    y: 3.3302621878e-06
    z: -1.24799043955e-07
    w: 0.999999999735
---
header: 
  seq: 265
  stamp: 
    secs: 762
    nsecs: 443000000
  frame_id: "world"
pose: 
  position: 
    x: 0.000112007575808
    y: -0.000114651222248
    z: -3.06459332933e-05
  orientation: 
    x: -9.19379594163e-05
    y: -5.22399820202e-05
    z: 2.11642671863e-05
    w: 0.999999994185
---
header: 
  seq: 266
  stamp: 
    secs: 762
    nsecs: 798000000
  frame_id: "world"
pose: 
  position: 
    x: 5.42996058357e-05
    y: -7.87799799582e-05
    z: -2.24312789214e-05
  orientation: 
    x: -5.3224299244e-05
    y: -2.27829713883e-05
    z: 9.99489200788e-06
    w: 0.999999998274
---
header: 
  seq: 267
  stamp: 
    secs: 763
    nsecs:  36000000
  frame_id: "world"
pose: 
  position: 
    x: 2.68031726591e-06
    y: -4.14611131418e-05
    z: -2.73766254395e-05
  orientation: 
    x: -2.38038428438e-05
    y: 3.09903657491e-06
    z: 2.91313938221e-07
    w: 0.999999999712
---
header: 
  seq: 268
  stamp: 
    secs: 763
    nsecs: 386000000
  frame_id: "world"
pose: 
  position: 
    x: 5.47189556528e-05
    y: -7.79461333877e-05
    z: -2.24552040891e-05
  orientation: 
    x: -5.28624222176e-05
    y: -2.29337437821e-05
    z: 9.9078770121e-06
    w: 0.999999998291
---
header: 
  seq: 269
  stamp: 
    secs: 763
    nsecs: 583000000
  frame_id: "world"
pose: 
  position: 
    x: 0.00011209299555
    y: -0.00011436373461
    z: -3.05643297906e-05
  orientation: 
    x: -9.17854189669e-05
    y: -5.22792721917e-05
    z: 2.11378172618e-05
    w: 0.999999994198
---
header: 
  seq: 270
  stamp: 
    secs: 763
    nsecs: 906000000
  frame_id: "world"
pose: 
  position: 
    x: 2.62433991338e-06
    y: -4.10844986618e-05
    z: -2.74341509794e-05
  orientation: 
    x: -2.36425221307e-05
    y: 3.13674217888e-06
    z: 3.71653101078e-07
    w: 0.999999999716
---
header: 
  seq: 271
  stamp: 
    secs: 764
    nsecs: 156000000
  frame_id: "world"
pose: 
  position: 
    x: 8.98931684787e-05
    y: -0.000123194040498
    z: -3.54458497895e-05
  orientation: 
    x: -8.86724660899e-05
    y: -3.96868925139e-05
    z: 1.47161098738e-05
    w: 0.999999995173
---
header: 
  seq: 272
  stamp: 
    secs: 764
    nsecs: 464000000
  frame_id: "world"
pose: 
  position: 
    x: 2.7227533792e-06
    y: -4.09195672546e-05
    z: -2.73968507827e-05
  orientation: 
    x: -2.35633724448e-05
    y: 3.09606980321e-06
    z: 3.72158439072e-07
    w: 0.999999999718
---
header: 
  seq: 273
  stamp: 
    secs: 764
    nsecs: 823000000
  frame_id: "world"
pose: 
  position: 
    x: 5.47226409253e-05
    y: -7.78839894338e-05
    z: -2.24784052989e-05
  orientation: 
    x: -5.28335039242e-05
    y: -2.29293600177e-05
    z: 9.90749320535e-06
    w: 0.999999998292
---
header: 
  seq: 274
  stamp: 
    secs: 765
    nsecs: 108000000
  frame_id: "world"
pose: 
  position: 
    x: 5.47264316992e-05
    y: -7.78774774517e-05
    z: -2.24767827604e-05
  orientation: 
    x: -5.28315830714e-05
    y: -2.29386568725e-05
    z: 9.9057342426e-06
    w: 0.999999998292
---
header: 
  seq: 275
  stamp: 
    secs: 765
    nsecs: 421000000
  frame_id: "world"
pose: 
  position: 
    x: 1.44644286593e-06
    y: -3.69600384147e-05
    z: -2.6843199521e-05
  orientation: 
    x: -2.12490722284e-05
    y: 3.72857402821e-06
    z: -3.39806604109e-07
    w: 0.999999999767
---
header: 
  seq: 276
  stamp: 
    secs: 765
    nsecs: 629000000
  frame_id: "world"
pose: 
  position: 
    x: 0.00011226854258
    y: -0.000114432885312
    z: -3.04220520775e-05
  orientation: 
    x: -9.1837383855e-05
    y: -5.23730047146e-05
    z: 2.11591922059e-05
    w: 0.999999994188
---
header: 
  seq: 277
  stamp: 
    secs: 765
    nsecs: 839000000
  frame_id: "world"
pose: 
  position: 
    x: 0.000112200221338
    y: -0.000114156697236
    z: -3.04454570141e-05
  orientation: 
    x: -9.17064238959e-05
    y: -5.23420527918e-05
    z: 2.11734330742e-05
    w: 0.999999994201
---
header: 
  seq: 278
  stamp: 
    secs: 766
    nsecs:  75000000
  frame_id: "world"
pose: 
  position: 
    x: 1.7615283241e-06
    y: -3.77160249627e-05
    z: -2.68507574219e-05
  orientation: 
    x: -2.16236439831e-05
    y: 3.54025610165e-06
    z: -1.70106403589e-07
    w: 0.99999999976
---
header: 
  seq: 279
  stamp: 
    secs: 766
    nsecs: 371000000
  frame_id: "world"
pose: 
  position: 
    x: 5.51524426555e-05
    y: -7.78601315687e-05
    z: -2.240782851e-05
  orientation: 
    x: -5.2814957508e-05
    y: -2.31411085737e-05
    z: 9.98513676786e-06
    w: 0.999999998288
---
header: 
  seq: 280
  stamp: 
    secs: 766
    nsecs: 707000000
  frame_id: "world"
pose: 
  position: 
    x: 5.51860757696e-05
    y: -7.78014291427e-05
    z: -2.24199011427e-05
  orientation: 
    x: -5.27865157898e-05
    y: -2.31533449154e-05
    z: 9.98544326759e-06
    w: 0.999999998289
---
header: 
  seq: 281
  stamp: 
    secs: 767
    nsecs:  52000000
  frame_id: "world"
pose: 
  position: 
    x: 5.52616547793e-05
    y: -7.77004970587e-05
    z: -2.24237555813e-05
  orientation: 
    x: -5.27624178183e-05
    y: -2.31786652479e-05
    z: 9.97862114785e-06
    w: 0.99999999829
---
header: 
  seq: 282
  stamp: 
    secs: 767
    nsecs: 272000000
  frame_id: "world"
pose: 
  position: 
    x: 2.08480491892e-06
    y: -4.11517357861e-05
    z: -2.73468631349e-05
  orientation: 
    x: -2.36562591386e-05
    y: 3.34991363975e-06
    z: 4.48677184167e-07
    w: 0.999999999714
---
header: 
  seq: 283
  stamp: 
    secs: 767
    nsecs: 644000000
  frame_id: "world"
pose: 
  position: 
    x: 2.18673062591e-06
    y: -4.10424763686e-05
    z: -2.73780005955e-05
  orientation: 
    x: -2.36240721211e-05
    y: 3.31643582191e-06
    z: 4.3552233807e-07
    w: 0.999999999715
---
header: 
  seq: 284
  stamp: 
    secs: 767
    nsecs: 904000000
  frame_id: "world"
pose: 
  position: 
    x: 5.52076162421e-05
    y: -7.77351815486e-05
    z: -2.24269406317e-05
  orientation: 
    x: -5.27810188039e-05
    y: -2.31591420347e-05
    z: 9.9813750978e-06
    w: 0.999999998289
---
header: 
  seq: 285
  stamp: 
    secs: 768
    nsecs: 181000000
  frame_id: "world"
pose: 
  position: 
    x: 1.30613796046e-06
    y: -3.75108793378e-05
    z: -2.71009448625e-05
  orientation: 
    x: -2.15763811814e-05
    y: 3.75942522533e-06
    z: -7.35080049986e-08
    w: 0.99999999976
---
header: 
  seq: 286
  stamp: 
    secs: 768
    nsecs: 434000000
  frame_id: "world"
pose: 
  position: 
    x: 8.97299760254e-05
    y: -0.000122752142488
    z: -3.57862736564e-05
  orientation: 
    x: -8.84346077629e-05
    y: -3.95535132986e-05
    z: 1.47564168602e-05
    w: 0.999999995199
---
header: 
  seq: 287
  stamp: 
    secs: 768
    nsecs: 692000000
  frame_id: "world"
pose: 
  position: 
    x: 8.9749955805e-05
    y: -0.000122757119243
    z: -3.57704011549e-05
  orientation: 
    x: -8.84362011976e-05
    y: -3.95660061177e-05
    z: 1.4755168124e-05
    w: 0.999999995198
---
header: 
  seq: 288
  stamp: 
    secs: 769
    nsecs:  27000000
  frame_id: "world"
pose: 
  position: 
    x: 0.00141903571784
    y: -0.0104734115303
    z: -0.00268370541744
  orientation: 
    x: -0.0209398556034
    y: -0.000570625209653
    z: -0.00160377230891
    w: 0.999779288017
---
header: 
  seq: 289
  stamp: 
    secs: 769
    nsecs: 596000000
  frame_id: "world"
pose: 
  position: 
    x: 0.00272385776043
    y: -0.103259459138
    z: 0.00118199293502
  orientation: 
    x: -0.0191155750973
    y: -0.000914973984547
    z: -0.0137877923811
    w: 0.999721788495
---
header: 
  seq: 290
  stamp: 
    secs: 769
    nsecs: 889000000
  frame_id: "world"
pose: 
  position: 
    x: 0.00161705038045
    y: -0.15106639266
    z: 0.00499885948375
  orientation: 
    x: -0.0294896019733
    y: -0.000663872612876
    z: -0.0197450884975
    w: 0.999369828506
---
header: 
  seq: 291
  stamp: 
    secs: 770
    nsecs: 155000000
  frame_id: "world"
pose: 
  position: 
    x: -0.000610008276265
    y: -0.178294341203
    z: 0.0074336259608
  orientation: 
    x: -0.0368689300389
    y: -0.000179409401732
    z: -0.0232091097153
    w: 0.999050542784
---
header: 
  seq: 292
  stamp: 
    secs: 770
    nsecs: 486000000
  frame_id: "world"
pose: 
  position: 
    x: 0.000263678511023
    y: -0.193233158876
    z: 0.00940287818497
  orientation: 
    x: -0.0413639384128
    y: -0.000945085808695
    z: -0.0252820053164
    w: 0.998823784068
---
header: 
  seq: 293
  stamp: 
    secs: 770
    nsecs: 921000000
  frame_id: "world"
pose: 
  position: 
    x: 0.00063297677764
    y: -0.199925645679
    z: 0.0108738326935
  orientation: 
    x: -0.043471828552
    y: -0.00136698541138
    z: -0.0263445920511
    w: 0.998706310155
---
header: 
  seq: 294
  stamp: 
    secs: 771
    nsecs: 274000000
  frame_id: "world"
pose: 
  position: 
    x: 0.000864796607768
    y: -0.201864721924
    z: 0.011283202304
  orientation: 
    x: -0.0441674500088
    y: -0.00153408825196
    z: -0.0266838615345
    w: 0.998666538173
---
header: 
  seq: 295
  stamp: 
    secs: 771
    nsecs: 701000000
  frame_id: "world"
pose: 
  position: 
    x: 0.000955932012348
    y: -0.203617025156
    z: 0.0114785911521
  orientation: 
    x: -0.0449424616746
    y: -0.00161385672693
    z: -0.0266944555374
    w: 0.998631551999
---
header: 
  seq: 296
  stamp: 
    secs: 772
    nsecs: 217000000
  frame_id: "world"
pose: 
  position: 
    x: 0.000944006971344
    y: -0.203947786733
    z: 0.0115869345254
  orientation: 
    x: -0.0451380765147
    y: -0.00162815791516
    z: -0.0268938814904
    w: 0.998617355291
---
header: 
  seq: 297
  stamp: 
    secs: 772
    nsecs: 752000000
  frame_id: "world"
pose: 
  position: 
    x: 0.000898267543041
    y: -0.204130699742
    z: 0.0116496073156
  orientation: 
    x: -0.0453541234824
    y: -0.0016161234874
    z: -0.0266999629423
    w: 0.998612789627
---
header: 
  seq: 298
  stamp: 
    secs: 773
    nsecs: 192000000
  frame_id: "world"
pose: 
  position: 
    x: 0.000922311391911
    y: -0.204366895151
    z: 0.0116875415974
  orientation: 
    x: -0.0453980248145
    y: -0.00163168449655
    z: -0.0267327416819
    w: 0.998609892536
---
header: 
  seq: 299
  stamp: 
    secs: 773
    nsecs: 719000000
  frame_id: "world"
pose: 
  position: 
    x: 0.000915589858444
    y: -0.204416738191
    z: 0.0116998489912
  orientation: 
    x: -0.0454847766725
    y: -0.00162880021995
    z: -0.0267918973754
    w: 0.998604364268
---
header: 
  seq: 300
  stamp: 
    secs: 774
    nsecs: 295000000
  frame_id: "world"
pose: 
  position: 
    x: 0.000793109429777
    y: -0.204513865004
    z: 0.0117862147991
  orientation: 
    x: -0.0454213126671
    y: -0.00158866812558
    z: -0.0267367432743
    w: 0.9986087958
---
header: 
  seq: 301
  stamp: 
    secs: 774
    nsecs: 777000000
  frame_id: "world"
pose: 
  position: 
    x: -0.000490823391292
    y: -0.199391087531
    z: 0.0116102084618
  orientation: 
    x: -0.0650316076928
    y: 0.0014836124779
    z: -0.022653444558
    w: 0.997624934705
---
header: 
  seq: 302
  stamp: 
    secs: 775
    nsecs: 223000000
  frame_id: "world"
pose: 
  position: 
    x: 0.0040468052249
    y: -0.202232650256
    z: 0.0180109952593
  orientation: 
    x: -0.0505857916555
    y: 0.000690803075439
    z: -0.0282373952657
    w: 0.998320214151
---
header: 
  seq: 303
  stamp: 
    secs: 775
    nsecs: 515000000
  frame_id: "world"
pose: 
  position: 
    x: 0.00782683930222
    y: -0.203608482411
    z: 0.0260231847879
  orientation: 
    x: -0.0438443447804
    y: 0.00131322267883
    z: -0.0238380089444
    w: 0.998753071688
---
header: 
  seq: 304
  stamp: 
    secs: 775
    nsecs: 803000000
  frame_id: "world"
pose: 
  position: 
    x: 0.0119510659666
    y: -0.203616899348
    z: 0.0317330414605
  orientation: 
    x: -0.0486152745874
    y: 0.00169658920164
    z: -0.0271800190805
    w: 0.99844625455
---
header: 
  seq: 305
  stamp: 
    secs: 776
    nsecs:  91000000
  frame_id: "world"
pose: 
  position: 
    x: 0.0100459484492
    y: -0.199567049981
    z: 0.0392236159825
  orientation: 
    x: -0.0455779542153
    y: -0.00172410407708
    z: -0.0279427620378
    w: 0.998568415085
---
header: 
  seq: 306
  stamp: 
    secs: 776
    nsecs: 495000000
  frame_id: "world"
pose: 
  position: 
    x: 0.0137608598235
    y: -0.201149332757
    z: 0.0496025420762
  orientation: 
    x: -0.0414168860587
    y: -0.00624599239386
    z: -0.0246411314571
    w: 0.998818523942
---
header: 
  seq: 307
  stamp: 
    secs: 776
    nsecs: 884000000
  frame_id: "world"
pose: 
  position: 
    x: 0.0151942421399
    y: -0.198039504076
    z: 0.0597621938988
  orientation: 
    x: -0.0479286990551
    y: -0.00827135475986
    z: -0.025140229115
    w: 0.998500071796
---
header: 
  seq: 308
  stamp: 
    secs: 777
    nsecs: 280000000
  frame_id: "world"
pose: 
  position: 
    x: 0.0184645387625
    y: -0.193553880829
    z: 0.0687099628929
  orientation: 
    x: -0.041417315116
    y: -0.0176533265164
    z: -0.0303367067548
    w: 0.998525237685
---
header: 
  seq: 309
  stamp: 
    secs: 777
    nsecs: 906000000
  frame_id: "world"
pose: 
  position: 
    x: 0.0161758290735
    y: -0.190499693063
    z: 0.0856007916803
  orientation: 
    x: -0.04105915074
    y: -0.0259008633151
    z: -0.0252465526228
    w: 0.998501829243
---
header: 
  seq: 310
  stamp: 
    secs: 778
    nsecs: 197000000
  frame_id: "world"
pose: 
  position: 
    x: 0.0188960703612
    y: -0.18885890277
    z: 0.0930405446637
  orientation: 
    x: -0.0408205543013
    y: -0.0277655809684
    z: -0.0234336155897
    w: 0.998505693785
---
header: 
  seq: 311
  stamp: 
    secs: 778
    nsecs: 473000000
  frame_id: "world"
pose: 
  position: 
    x: 0.0203756744073
    y: -0.187718094246
    z: 0.100298217009
  orientation: 
    x: -0.0458497832743
    y: -0.0278391843695
    z: -0.0224021849096
    w: 0.998309029959
---
header: 
  seq: 312
  stamp: 
    secs: 778
    nsecs: 780000000
  frame_id: "world"
pose: 
  position: 
    x: 0.0263786930337
    y: -0.189685650018
    z: 0.108778583378
  orientation: 
    x: -0.0409599305313
    y: -0.0309531926534
    z: -0.031476678303
    w: 0.998185054325
---
header: 
  seq: 313
  stamp: 
    secs: 779
    nsecs: 255000000
  frame_id: "world"
pose: 
  position: 
    x: 0.0269234454867
    y: -0.187644093776
    z: 0.120293234428
  orientation: 
    x: -0.0412038867022
    y: -0.0340947983434
    z: -0.0184549296878
    w: 0.998398317315
---
header: 
  seq: 314
  stamp: 
    secs: 779
    nsecs: 595000000
  frame_id: "world"
pose: 
  position: 
    x: 0.0304636772118
    y: -0.189626232627
    z: 0.12896609646
  orientation: 
    x: -0.0399736774111
    y: -0.0374536415004
    z: -0.0237625512545
    w: 0.99821574372
---
header: 
  seq: 315
  stamp: 
    secs: 780
    nsecs:  26000000
  frame_id: "world"
pose: 
  position: 
    x: 0.0324139202606
    y: -0.187021385269
    z: 0.14008196356
  orientation: 
    x: -0.0383244087021
    y: -0.0373303807917
    z: -0.0189193757538
    w: 0.998388571443
---
header: 
  seq: 316
  stamp: 
    secs: 780
    nsecs: 563000000
  frame_id: "world"
pose: 
  position: 
    x: 0.0412533527712
    y: -0.182165637914
    z: 0.153025751397
  orientation: 
    x: -0.0429670984866
    y: -0.0320860502659
    z: -0.0221161224266
    w: 0.998316177849
---
header: 
  seq: 317
  stamp: 
    secs: 780
    nsecs: 842000000
  frame_id: "world"
pose: 
  position: 
    x: 0.0430457411059
    y: -0.179599326699
    z: 0.159565840388
  orientation: 
    x: -0.0421601052109
    y: -0.031269886708
    z: -0.0217904277813
    w: 0.998383642179
---
header: 
  seq: 318
  stamp: 
    secs: 781
    nsecs: 113000000
  frame_id: "world"
pose: 
  position: 
    x: 0.0485370396858
    y: -0.176143705642
    z: 0.165683148281
  orientation: 
    x: -0.0344430426305
    y: -0.0300096830582
    z: -0.024299588539
    w: 0.998660415624
---
header: 
  seq: 319
  stamp: 
    secs: 781
    nsecs: 387000000
  frame_id: "world"
pose: 
  position: 
    x: 0.0502081384044
    y: -0.181466104569
    z: 0.171709114612
  orientation: 
    x: -0.0417339122242
    y: -0.0282440870158
    z: -0.0245953871112
    w: 0.998426571688
---
header: 
  seq: 320
  stamp: 
    secs: 781
    nsecs: 795000000
  frame_id: "world"
pose: 
  position: 
    x: 0.0523441589815
    y: -0.176699031987
    z: 0.18097375519
  orientation: 
    x: -0.0401823194981
    y: -0.02566304835
    z: -0.0208421881236
    w: 0.998645278537
---
header: 
  seq: 321
  stamp: 
    secs: 782
    nsecs: 173000000
  frame_id: "world"
pose: 
  position: 
    x: 0.0580288125907
    y: -0.172471274235
    z: 0.187242704501
  orientation: 
    x: -0.0428234360952
    y: -0.0302190023267
    z: -0.0203857042314
    w: 0.998417441896
---
header: 
  seq: 322
  stamp: 
    secs: 782
    nsecs: 553000000
  frame_id: "world"
pose: 
  position: 
    x: 0.0645528826913
    y: -0.171160367611
    z: 0.196005126364
  orientation: 
    x: -0.0431132481729
    y: -0.0274574103295
    z: -0.0213456074432
    w: 0.998464673132
---
header: 
  seq: 323
  stamp: 
    secs: 783
    nsecs: 196000000
  frame_id: "world"
pose: 
  position: 
    x: 0.0721382636035
    y: -0.166391930667
    z: 0.210524887617
  orientation: 
    x: -0.0379429826514
    y: -0.0264958505033
    z: -0.0218979013896
    w: 0.998688530969
---
header: 
  seq: 324
  stamp: 
    secs: 783
    nsecs: 478000000
  frame_id: "world"
pose: 
  position: 
    x: 0.0764457996699
    y: -0.165323749679
    z: 0.217188545477
  orientation: 
    x: -0.0394306499809
    y: -0.0298446589128
    z: -0.0274164217549
    w: 0.998400150238
---
header: 
  seq: 325
  stamp: 
    secs: 783
    nsecs: 771000000
  frame_id: "world"
pose: 
  position: 
    x: 0.0778561544921
    y: -0.163124171023
    z: 0.224763919319
  orientation: 
    x: -0.0418750222915
    y: -0.0245837206906
    z: -0.0211538037611
    w: 0.998596334748
---
header: 
  seq: 326
  stamp: 
    secs: 784
    nsecs:  87000000
  frame_id: "world"
pose: 
  position: 
    x: 0.0844142744101
    y: -0.160214272016
    z: 0.23339178046
  orientation: 
    x: -0.0346699186652
    y: -0.0213923315666
    z: -0.0218725067932
    w: 0.998930407154
---
header: 
  seq: 327
  stamp: 
    secs: 784
    nsecs: 496000000
  frame_id: "world"
pose: 
  position: 
    x: 0.0854726482375
    y: -0.157323745575
    z: 0.241806247207
  orientation: 
    x: -0.0342763923565
    y: -0.0212131889981
    z: -0.0151812320426
    w: 0.999071899181
---
header: 
  seq: 328
  stamp: 
    secs: 784
    nsecs: 825000000
  frame_id: "world"
pose: 
  position: 
    x: 0.0908613913175
    y: -0.154566846492
    z: 0.248720531278
  orientation: 
    x: -0.0352282893264
    y: -0.0235159886994
    z: -0.0230036602054
    w: 0.998837723318
---
header: 
  seq: 329
  stamp: 
    secs: 785
    nsecs: 267000000
  frame_id: "world"
pose: 
  position: 
    x: 0.0928841789238
    y: -0.152668240088
    z: 0.258934034955
  orientation: 
    x: -0.0351103957237
    y: -0.0255127821186
    z: -0.0192778764975
    w: 0.998871724266
---
header: 
  seq: 330
  stamp: 
    secs: 785
    nsecs: 910000000
  frame_id: "world"
pose: 
  position: 
    x: 0.0985630167847
    y: -0.152427215829
    z: 0.275131273956
  orientation: 
    x: -0.0379987073313
    y: -0.0318047312395
    z: -0.0293404342248
    w: 0.998340471098
---
header: 
  seq: 331
  stamp: 
    secs: 786
    nsecs: 227000000
  frame_id: "world"
pose: 
  position: 
    x: 0.0977604760081
    y: -0.153930222507
    z: 0.283866523766
  orientation: 
    x: -0.0391579163285
    y: -0.0361867692191
    z: -0.0171575228961
    w: 0.998430165174
---
header: 
  seq: 332
  stamp: 
    secs: 786
    nsecs: 525000000
  frame_id: "world"
pose: 
  position: 
    x: 0.098790948159
    y: -0.154609242172
    z: 0.292556034931
  orientation: 
    x: -0.0350931040688
    y: -0.0416152908065
    z: -0.0214866194775
    w: 0.998286014528
---
header: 
  seq: 333
  stamp: 
    secs: 786
    nsecs: 820000000
  frame_id: "world"
pose: 
  position: 
    x: 0.0999060162457
    y: -0.15255827605
    z: 0.300331407359
  orientation: 
    x: -0.036104776588
    y: -0.041885278973
    z: -0.0218462841335
    w: 0.998230839226
---
header: 
  seq: 334
  stamp: 
    secs: 787
    nsecs: 274000000
  frame_id: "world"
pose: 
  position: 
    x: 0.0997828039884
    y: -0.153802718008
    z: 0.312240776933
  orientation: 
    x: -0.0410242844516
    y: -0.0510442432383
    z: -0.021302407552
    w: 0.997626032514
---
header: 
  seq: 335
  stamp: 
    secs: 787
    nsecs: 790000000
  frame_id: "world"
pose: 
  position: 
    x: 0.0996390817698
    y: -0.156343624757
    z: 0.326182588292
  orientation: 
    x: -0.0361647826156
    y: -0.0575216117754
    z: -0.0186783024482
    w: 0.99751415714
---
header: 
  seq: 336
  stamp: 
    secs: 788
    nsecs: 310000000
  frame_id: "world"
pose: 
  position: 
    x: 0.0998132652324
    y: -0.151200990986
    z: 0.340029492562
  orientation: 
    x: -0.0380342670353
    y: -0.0647687729787
    z: -0.0183826795858
    w: 0.997005756086
---
header: 
  seq: 337
  stamp: 
    secs: 788
    nsecs: 597000000
  frame_id: "world"
pose: 
  position: 
    x: 0.101177132515
    y: -0.157964718428
    z: 0.349297905932
  orientation: 
    x: -0.0374003906138
    y: -0.0711174269144
    z: -0.020951842067
    w: 0.996546307346
---
header: 
  seq: 338
  stamp: 
    secs: 789
    nsecs:  24000000
  frame_id: "world"
pose: 
  position: 
    x: 0.0996670848135
    y: -0.158221198028
    z: 0.361287542321
  orientation: 
    x: -0.037889287744
    y: -0.0799638235247
    z: -0.0209213356173
    w: 0.995857663784
---
header: 
  seq: 339
  stamp: 
    secs: 789
    nsecs: 527000000
  frame_id: "world"
pose: 
  position: 
    x: 0.0966486233139
    y: -0.165151239622
    z: 0.372035743423
  orientation: 
    x: -0.0438809330747
    y: -0.0891149464686
    z: -0.0212800405681
    w: 0.9948266934
---
header: 
  seq: 340
  stamp: 
    secs: 790
    nsecs: 122000000
  frame_id: "world"
pose: 
  position: 
    x: 0.094013079259
    y: -0.170960562164
    z: 0.384277579816
  orientation: 
    x: -0.0456594735191
    y: -0.100493094554
    z: -0.0218484060809
    w: 0.993649333305
---
header: 
  seq: 341
  stamp: 
    secs: 790
    nsecs: 633000000
  frame_id: "world"
pose: 
  position: 
    x: 0.092049254643
    y: -0.174580502925
    z: 0.396508917018
  orientation: 
    x: -0.0465620743657
    y: -0.111308773592
    z: -0.0223570987801
    w: 0.992442688666
---
header: 
  seq: 342
  stamp: 
    secs: 791
    nsecs: 143000000
  frame_id: "world"
pose: 
  position: 
    x: 0.0893829131446
    y: -0.182773577077
    z: 0.4059814974
  orientation: 
    x: -0.0381403530865
    y: -0.113465415326
    z: -0.0331172288517
    w: 0.99225710486
---
header: 
  seq: 343
  stamp: 
    secs: 791
    nsecs: 575000000
  frame_id: "world"
pose: 
  position: 
    x: 0.0793930616445
    y: -0.179400326273
    z: 0.407905227697
  orientation: 
    x: -0.0438985918789
    y: -0.109762337574
    z: -0.0259580601937
    w: 0.992648639747
---
header: 
  seq: 344
  stamp: 
    secs: 791
    nsecs: 832000000
  frame_id: "world"
pose: 
  position: 
    x: 0.0689181070082
    y: -0.179936981157
    z: 0.407771424623
  orientation: 
    x: -0.0445599947625
    y: -0.104195048346
    z: -0.0235127763837
    w: 0.993279894146
---
header: 
  seq: 345
  stamp: 
    secs: 792
    nsecs: 133000000
  frame_id: "world"
pose: 
  position: 
    x: 0.0648101538545
    y: -0.177125929654
    z: 0.40555227471
  orientation: 
    x: -0.0459647791935
    y: -0.106619673745
    z: -0.0266409152127
    w: 0.992879522339
---
header: 
  seq: 346
  stamp: 
    secs: 792
    nsecs: 432000000
  frame_id: "world"
pose: 
  position: 
    x: 0.0535672630322
    y: -0.177367925145
    z: 0.406024087027
  orientation: 
    x: -0.045098127356
    y: -0.101225371771
    z: -0.0214575590878
    w: 0.993609156649
---
header: 
  seq: 347
  stamp: 
    secs: 792
    nsecs: 842000000
  frame_id: "world"
pose: 
  position: 
    x: 0.0370193692178
    y: -0.178700561163
    z: 0.401563169711
  orientation: 
    x: -0.048274126541
    y: -0.100826144145
    z: -0.0163880908911
    w: 0.993597065133
---
header: 
  seq: 348
  stamp: 
    secs: 793
    nsecs: 198000000
  frame_id: "world"
pose: 
  position: 
    x: 0.0299969942627
    y: -0.173322867023
    z: 0.403473497011
  orientation: 
    x: -0.0471206438644
    y: -0.0987111701929
    z: -0.0233176440842
    w: 0.993726339228
---
header: 
  seq: 349
  stamp: 
    secs: 793
    nsecs: 674000000
  frame_id: "world"
pose: 
  position: 
    x: 0.0132226943735
    y: -0.176536152216
    z: 0.400779087265
  orientation: 
    x: -0.0476119631866
    y: -0.0924224586737
    z: -0.0180927466977
    w: 0.994416332635
---
header: 
  seq: 350
  stamp: 
    secs: 794
    nsecs: 139000000
  frame_id: "world"
pose: 
  position: 
    x: 0.00295644791141
    y: -0.176004321102
    z: 0.401391742088
  orientation: 
    x: -0.0426162121007
    y: -0.091951372768
    z: -0.0254471694469
    w: 0.994525638221
---
header: 
  seq: 351
  stamp: 
    secs: 794
    nsecs: 410000000
  frame_id: "world"
pose: 
  position: 
    x: -0.00529778813788
    y: -0.173371310557
    z: 0.399627516282
  orientation: 
    x: -0.0441130352553
    y: -0.0918398722403
    z: -0.0194176747249
    w: 0.994606671954
---
header: 
  seq: 352
  stamp: 
    secs: 794
    nsecs: 731000000
  frame_id: "world"
pose: 
  position: 
    x: -0.00787703234133
    y: -0.167684490006
    z: 0.39995925156
  orientation: 
    x: -0.0461018569034
    y: -0.0927003947445
    z: -0.0170396723482
    w: 0.994480218592
---
header: 
  seq: 353
  stamp: 
    secs: 795
    nsecs:   8000000
  frame_id: "world"
pose: 
  position: 
    x: -0.0120765531419
    y: -0.16572695545
    z: 0.39764497234
  orientation: 
    x: -0.0376347739205
    y: -0.0894052948275
    z: -0.0239796782817
    w: 0.994995121635
---
header: 
  seq: 354
  stamp: 
    secs: 795
    nsecs: 501000000
  frame_id: "world"
pose: 
  position: 
    x: -0.0323881737129
    y: -0.168294223877
    z: 0.398636157482
  orientation: 
    x: -0.0506707399032
    y: -0.0784695035795
    z: -0.019351013513
    w: 0.995439878346
---
header: 
  seq: 355
  stamp: 
    secs: 795
    nsecs: 986000000
  frame_id: "world"
pose: 
  position: 
    x: -0.0304971734775
    y: -0.166747151722
    z: 0.397626129568
  orientation: 
    x: -0.0410205854621
    y: -0.0813705447896
    z: -0.0182505795592
    w: 0.995672166104
---
header: 
  seq: 356
  stamp: 
    secs: 796
    nsecs: 480000000
  frame_id: "world"
pose: 
  position: 
    x: -0.0316991465128
    y: -0.170153360909
    z: 0.393916681047
  orientation: 
    x: -0.0468497897951
    y: -0.0812465312842
    z: -0.0226958849992
    w: 0.995333609979
---
header: 
  seq: 357
  stamp: 
    secs: 796
    nsecs: 776000000
  frame_id: "world"
pose: 
  position: 
    x: -0.0516206525707
    y: -0.168212275825
    z: 0.398114407926
  orientation: 
    x: -0.0485273161739
    y: -0.0754824669712
    z: -0.0222697619736
    w: 0.99571660349
---
header: 
  seq: 358
  stamp: 
    secs: 797
    nsecs:  54000000
  frame_id: "world"
pose: 
  position: 
    x: -0.0566283633974
    y: -0.165279315046
    z: 0.397455237483
  orientation: 
    x: -0.0391017612677
    y: -0.0726513782937
    z: -0.0251572772003
    w: 0.996273025281
---
header: 
  seq: 359
  stamp: 
    secs: 797
    nsecs: 365000000
  frame_id: "world"
pose: 
  position: 
    x: -0.0655721368994
    y: -0.166036275834
    z: 0.396045284771
  orientation: 
    x: -0.0402818539632
    y: -0.0702171655557
    z: -0.0161436986101
    w: 0.996587328285
---
header: 
  seq: 360
  stamp: 
    secs: 797
    nsecs: 751000000
  frame_id: "world"
pose: 
  position: 
    x: -0.0703244933695
    y: -0.16210838084
    z: 0.396840964051
  orientation: 
    x: -0.0380828619555
    y: -0.0729091633798
    z: -0.0230399846378
    w: 0.996344874342
---
header: 
  seq: 361
  stamp: 
    secs: 798
    nsecs: 234000000
  frame_id: "world"
pose: 
  position: 
    x: -0.0796565843595
    y: -0.163943965904
    z: 0.398925318949
  orientation: 
    x: -0.0435750523415
    y: -0.0662710036032
    z: -0.024123763033
    w: 0.996557782044
---
header: 
  seq: 362
  stamp: 
    secs: 798
    nsecs: 870000000
  frame_id: "world"
pose: 
  position: 
    x: -0.0889662768487
    y: -0.16169063054
    z: 0.399612271091
  orientation: 
    x: -0.0430377276423
    y: -0.0596151078671
    z: -0.0255535418546
    w: 0.996965801526
---
header: 
  seq: 363
  stamp: 
    secs: 799
    nsecs: 216000000
  frame_id: "world"
pose: 
  position: 
    x: -0.107524316872
    y: -0.158597589172
    z: 0.400286489872
  orientation: 
    x: -0.0396167722824
    y: -0.0521842266146
    z: -0.0196958312559
    w: 0.9976569511
---
header: 
  seq: 364
  stamp: 
    secs: 799
    nsecs: 539000000
  frame_id: "world"
pose: 
  position: 
    x: -0.105284395577
    y: -0.155443545477
    z: 0.398654877183
  orientation: 
    x: -0.0469374103843
    y: -0.0505703928771
    z: -0.0196194652645
    w: 0.997423977781
---
header: 
  seq: 365
  stamp: 
    secs: 799
    nsecs: 810000000
  frame_id: "world"
pose: 
  position: 
    x: -0.112511297238
    y: -0.151957489615
    z: 0.401365762639
  orientation: 
    x: -0.04051032335
    y: -0.0443894873855
    z: -0.0180214104229
    w: 0.998029917326
---
header: 
  seq: 366
  stamp: 
    secs: 800
    nsecs: 247000000
  frame_id: "world"
pose: 
  position: 
    x: -0.125149325021
    y: -0.150406554789
    z: 0.403239865695
  orientation: 
    x: -0.036387055006
    y: -0.0407839111357
    z: -0.023332615274
    w: 0.99823256002
---
header: 
  seq: 367
  stamp: 
    secs: 800
    nsecs: 601000000
  frame_id: "world"
pose: 
  position: 
    x: -0.124734146535
    y: -0.144457752641
    z: 0.403808086475
  orientation: 
    x: -0.0326264197696
    y: -0.0400332406294
    z: -0.0223556349556
    w: 0.998415285321
---
header: 
  seq: 368
  stamp: 
    secs: 801
    nsecs: 324000000
  frame_id: "world"
pose: 
  position: 
    x: -0.152271311943
    y: -0.149129238217
    z: 0.40571898185
  orientation: 
    x: -0.0391733877252
    y: -0.0348593664656
    z: -0.0226573483687
    w: 0.998367124273
---
header: 
  seq: 369
  stamp: 
    secs: 801
    nsecs: 665000000
  frame_id: "world"
pose: 
  position: 
    x: -0.158992135837
    y: -0.15015301758
    z: 0.406355570626
  orientation: 
    x: -0.0397577276392
    y: -0.0387755499815
    z: -0.0227761554138
    w: 0.998196887674
---
header: 
  seq: 370
  stamp: 
    secs: 801
    nsecs: 986000000
  frame_id: "world"
pose: 
  position: 
    x: -0.176581291577
    y: -0.1553600849
    z: 0.407474316779
  orientation: 
    x: -0.0424586729692
    y: -0.0344935004836
    z: -0.0207611199126
    w: 0.998286750094
---
header: 
  seq: 371
  stamp: 
    secs: 802
    nsecs: 275000000
  frame_id: "world"
pose: 
  position: 
    x: -0.184012426243
    y: -0.155523114142
    z: 0.409050611198
  orientation: 
    x: -0.0424477663762
    y: -0.0354721287615
    z: -0.0185636915544
    w: 0.998296200818
---
header: 
  seq: 372
  stamp: 
    secs: 802
    nsecs: 650000000
  frame_id: "world"
pose: 
  position: 
    x: -0.194806563884
    y: -0.160098443764
    z: 0.412582065158
  orientation: 
    x: -0.0401692077893
    y: -0.0376409584161
    z: -0.0216201971829
    w: 0.998249547993
---
header: 
  seq: 373
  stamp: 
    secs: 803
    nsecs: 135000000
  frame_id: "world"
pose: 
  position: 
    x: -0.212103369468
    y: -0.164098288294
    z: 0.4151062887
  orientation: 
    x: -0.0439696961352
    y: -0.0365844198056
    z: -0.0226356056572
    w: 0.998106144358
---
header: 
  seq: 374
  stamp: 
    secs: 803
    nsecs: 605000000
  frame_id: "world"
pose: 
  position: 
    x: -0.226628551573
    y: -0.168307890381
    z: 0.418225055379
  orientation: 
    x: -0.047842465354
    y: -0.0375436063566
    z: -0.0218395606705
    w: 0.997910121063
---
header: 
  seq: 375
  stamp: 
    secs: 804
    nsecs:  94000000
  frame_id: "world"
pose: 
  position: 
    x: -0.245005655673
    y: -0.171593684676
    z: 0.421246411089
  orientation: 
    x: -0.0479749179697
    y: -0.0401074210919
    z: -0.0168597866842
    w: 0.997900571005
---
header: 
  seq: 376
  stamp: 
    secs: 804
    nsecs: 392000000
  frame_id: "world"
pose: 
  position: 
    x: -0.255890422711
    y: -0.172021412162
    z: 0.422347092366
  orientation: 
    x: -0.0509125896549
    y: -0.039226568902
    z: -0.0191096917405
    w: 0.997749469651
---
header: 
  seq: 377
  stamp: 
    secs: 804
    nsecs: 668000000
  frame_id: "world"
pose: 
  position: 
    x: -0.264087726092
    y: -0.172186940474
    z: 0.422871622871
  orientation: 
    x: -0.0549199726214
    y: -0.0429369234494
    z: -0.02448423428
    w: 0.997266634097
---
header: 
  seq: 378
  stamp: 
    secs: 804
    nsecs: 945000000
  frame_id: "world"
pose: 
  position: 
    x: -0.273912615796
    y: -0.172691074192
    z: 0.424676926839
  orientation: 
    x: -0.0531288691618
    y: -0.0436308686934
    z: -0.0228554285192
    w: 0.997372197299
---
header: 
  seq: 379
  stamp: 
    secs: 805
    nsecs: 394000000
  frame_id: "world"
pose: 
  position: 
    x: -0.289505824234
    y: -0.176494795471
    z: 0.427408960861
  orientation: 
    x: -0.0574696826458
    y: -0.0476672827478
    z: -0.0171315694438
    w: 0.997061470051
---
header: 
  seq: 380
  stamp: 
    secs: 806
    nsecs:  97000000
  frame_id: "world"
pose: 
  position: 
    x: -0.312077912157
    y: -0.183382752633
    z: 0.433870540011
  orientation: 
    x: -0.0572623491345
    y: -0.070480404082
    z: -0.0168976947284
    w: 0.995724863567
---
header: 
  seq: 381
  stamp: 
    secs: 806
    nsecs: 475000000
  frame_id: "world"
pose: 
  position: 
    x: -0.329981029792
    y: -0.187131415924
    z: 0.436230428773
  orientation: 
    x: -0.0590870160112
    y: -0.078558764441
    z: -0.015259415476
    w: 0.99503989634
---
header: 
  seq: 382
  stamp: 
    secs: 806
    nsecs: 849000000
  frame_id: "world"
pose: 
  position: 
    x: -0.342152216524
    y: -0.193748196783
    z: 0.434327136823
  orientation: 
    x: -0.0619591292913
    y: -0.0927906894564
    z: -0.0141313803746
    w: 0.993655502846
---
header: 
  seq: 383
  stamp: 
    secs: 807
    nsecs: 279000000
  frame_id: "world"
pose: 
  position: 
    x: -0.355106660488
    y: -0.197416073911
    z: 0.435815696745
  orientation: 
    x: -0.0631213951477
    y: -0.107295920801
    z: -0.0131216047099
    w: 0.992134617047
---
header: 
  seq: 384
  stamp: 
    secs: 807
    nsecs: 879000000
  frame_id: "world"
pose: 
  position: 
    x: -0.372520330924
    y: -0.200820963821
    z: 0.436420211607
  orientation: 
    x: -0.0636409657297
    y: -0.127711880822
    z: -0.0113947875319
    w: 0.989701804482
---
header: 
  seq: 385
  stamp: 
    secs: 808
    nsecs: 361000000
  frame_id: "world"
pose: 
  position: 
    x: -0.387329658316
    y: -0.205890116767
    z: 0.436464870533
  orientation: 
    x: -0.0361331536759
    y: -0.138817527427
    z: 0.0205137995291
    w: 0.989445942593
---
header: 
  seq: 386
  stamp: 
    secs: 808
    nsecs: 762000000
  frame_id: "world"
pose: 
  position: 
    x: -0.389398386426
    y: -0.205797886966
    z: 0.430844297221
  orientation: 
    x: -0.0593670555481
    y: -0.143644954671
    z: -0.0037178331282
    w: 0.987839995865
---
header: 
  seq: 387
  stamp: 
    secs: 809
    nsecs:  45000000
  frame_id: "world"
pose: 
  position: 
    x: -0.386341158498
    y: -0.205334051379
    z: 0.426224703707
  orientation: 
    x: -0.0649141606383
    y: -0.14325409601
    z: -0.00877482667818
    w: 0.987515781211
---
header: 
  seq: 388
  stamp: 
    secs: 809
    nsecs: 355000000
  frame_id: "world"
pose: 
  position: 
    x: -0.385893423184
    y: -0.205942065649
    z: 0.421427577932
  orientation: 
    x: -0.0661620148147
    y: -0.144746179818
    z: -0.00431530618461
    w: 0.987244908498
---
header: 
  seq: 389
  stamp: 
    secs: 809
    nsecs: 708000000
  frame_id: "world"
pose: 
  position: 
    x: -0.3817781116
    y: -0.203685160094
    z: 0.416241566022
  orientation: 
    x: -0.060979188877
    y: -0.151018501246
    z: -0.00628761673519
    w: 0.986628307257
---
header: 
  seq: 390
  stamp: 
    secs: 810
    nsecs: 125000000
  frame_id: "world"
pose: 
  position: 
    x: -0.380862852141
    y: -0.205842139841
    z: 0.408955521445
  orientation: 
    x: -0.061812953712
    y: -0.151195664414
    z: -0.0125259685097
    w: 0.986489802243
---
header: 
  seq: 391
  stamp: 
    secs: 810
    nsecs: 496000000
  frame_id: "world"
pose: 
  position: 
    x: -0.377898736201
    y: -0.204072450938
    z: 0.401827867722
  orientation: 
    x: -0.0660319936393
    y: -0.155323975841
    z: -0.0090787119499
    w: 0.98561240624
---
header: 
  seq: 392
  stamp: 
    secs: 811
    nsecs:  92000000
  frame_id: "world"
pose: 
  position: 
    x: -0.372947100321
    y: -0.203295010955
    z: 0.390580771881
  orientation: 
    x: -0.0608709462948
    y: -0.153580241387
    z: -0.0117768143765
    w: 0.98618920294
---
header: 
  seq: 393
  stamp: 
    secs: 811
    nsecs: 433000000
  frame_id: "world"
pose: 
  position: 
    x: -0.370643125041
    y: -0.203781253376
    z: 0.384535264491
  orientation: 
    x: -0.0634908829582
    y: -0.153622168095
    z: -0.00669898346306
    w: 0.986065038865
---
header: 
  seq: 394
  stamp: 
    secs: 811
    nsecs: 714000000
  frame_id: "world"
pose: 
  position: 
    x: -0.368307216032
    y: -0.203290983144
    z: 0.37897484507
  orientation: 
    x: -0.0676100469987
    y: -0.15681280228
    z: -0.0127280743031
    w: 0.985229223435
---
header: 
  seq: 395
  stamp: 
    secs: 811
    nsecs: 983000000
  frame_id: "world"
pose: 
  position: 
    x: -0.366456011633
    y: -0.202183395593
    z: 0.373601351515
  orientation: 
    x: -0.0652872070556
    y: -0.160465013098
    z: -0.00888797409333
    w: 0.984839867229
---
header: 
  seq: 396
  stamp: 
    secs: 812
    nsecs: 180000000
  frame_id: "world"
pose: 
  position: 
    x: -0.367458881078
    y: -0.201546170618
    z: 0.370192943567
  orientation: 
    x: -0.0640979194873
    y: -0.161689908993
    z: -0.0116372211819
    w: 0.984688989037
---
header: 
  seq: 397
  stamp: 
    secs: 812
    nsecs: 584000000
  frame_id: "world"
pose: 
  position: 
    x: -0.364378301401
    y: -0.201013161797
    z: 0.362105229914
  orientation: 
    x: -0.0648493684238
    y: -0.162358912336
    z: -0.00556720532381
    w: 0.984582728482
---
header: 
  seq: 398
  stamp: 
    secs: 813
    nsecs:  30000000
  frame_id: "world"
pose: 
  position: 
    x: -0.359413359193
    y: -0.200737339186
    z: 0.355358914484
  orientation: 
    x: -0.0606121391536
    y: -0.1649579384
    z: -0.00759780280292
    w: 0.984407090862
---
header: 
  seq: 399
  stamp: 
    secs: 813
    nsecs: 486000000
  frame_id: "world"
pose: 
  position: 
    x: -0.353269017773
    y: -0.19715478381
    z: 0.345278151277
  orientation: 
    x: -0.0620531748767
    y: -0.176170206343
    z: -0.0121894686011
    w: 0.982326258806
---
header: 
  seq: 400
  stamp: 
    secs: 813
    nsecs: 769000000
  frame_id: "world"
pose: 
  position: 
    x: -0.346871641492
    y: -0.197679002675
    z: 0.340897536963
  orientation: 
    x: -0.0639035410584
    y: -0.177284087292
    z: -0.0145157124346
    w: 0.981975551593
---
header: 
  seq: 401
  stamp: 
    secs: 814
    nsecs:  73000000
  frame_id: "world"
pose: 
  position: 
    x: -0.343056639179
    y: -0.198239799521
    z: 0.337179194673
  orientation: 
    x: -0.0636823117135
    y: -0.177202946478
    z: -0.0110195934025
    w: 0.982050022909
---
header: 
  seq: 402
  stamp: 
    secs: 814
    nsecs: 349000000
  frame_id: "world"
pose: 
  position: 
    x: -0.344051961051
    y: -0.199473701833
    z: 0.331120542852
  orientation: 
    x: -0.0567470775872
    y: -0.17401185451
    z: -0.00788375714597
    w: 0.983075526116
---
header: 
  seq: 403
  stamp: 
    secs: 814
    nsecs: 759000000
  frame_id: "world"
pose: 
  position: 
    x: -0.338223633004
    y: -0.200243213703
    z: 0.325750504464
  orientation: 
    x: -0.0611747864344
    y: -0.173065575685
    z: -0.00601370850656
    w: 0.982990227483
---
header: 
  seq: 404
  stamp: 
    secs: 815
    nsecs: 161000000
  frame_id: "world"
pose: 
  position: 
    x: -0.332545425927
    y: -0.201046704385
    z: 0.320376785337
  orientation: 
    x: -0.0578347531437
    y: -0.168638050647
    z: -0.00778885296442
    w: 0.98394902458
---
header: 
  seq: 405
  stamp: 
    secs: 815
    nsecs: 657000000
  frame_id: "world"
pose: 
  position: 
    x: -0.329691234589
    y: -0.20603319426
    z: 0.31112026004
  orientation: 
    x: -0.0631401613376
    y: -0.166987070164
    z: -0.0150922134543
    w: 0.98381952792
---
header: 
  seq: 406
  stamp: 
    secs: 816
    nsecs: 241000000
  frame_id: "world"
pose: 
  position: 
    x: -0.327416663814
    y: -0.209682841045
    z: 0.300160769288
  orientation: 
    x: -0.064948387457
    y: -0.164233805871
    z: -0.00652858765432
    w: 0.984259285716
---
header: 
  seq: 407
  stamp: 
    secs: 816
    nsecs: 536000000
  frame_id: "world"
pose: 
  position: 
    x: -0.321895791563
    y: -0.212821521928
    z: 0.296324171369
  orientation: 
    x: -0.0579239183927
    y: -0.162354054123
    z: -0.00948559633929
    w: 0.984985281235
---
header: 
  seq: 408
  stamp: 
    secs: 816
    nsecs: 841000000
  frame_id: "world"
pose: 
  position: 
    x: -0.3189999041
    y: -0.213540644278
    z: 0.292614671275
  orientation: 
    x: -0.0591783735376
    y: -0.165437440648
    z: -0.00786176940829
    w: 0.984411786764
---
header: 
  seq: 409
  stamp: 
    secs: 817
    nsecs: 155000000
  frame_id: "world"
pose: 
  position: 
    x: -0.31425710251
    y: -0.214538817905
    z: 0.287456122343
  orientation: 
    x: -0.0673070391605
    y: -0.165457120353
    z: -0.0106092729737
    w: 0.983860329077
---
header: 
  seq: 410
  stamp: 
    secs: 817
    nsecs: 621000000
  frame_id: "world"
pose: 
  position: 
    x: -0.309281922907
    y: -0.216594811342
    z: 0.278952762227
  orientation: 
    x: -0.0651155604842
    y: -0.162156939431
    z: -0.0100278283421
    w: 0.984563118056
---
header: 
  seq: 411
  stamp: 
    secs: 818
    nsecs:  45000000
  frame_id: "world"
pose: 
  position: 
    x: -0.316264566735
    y: -0.217698145965
    z: 0.266428691078
  orientation: 
    x: -0.0668741192076
    y: -0.151457719345
    z: -0.0112747829828
    w: 0.986134519576
---
header: 
  seq: 412
  stamp: 
    secs: 818
    nsecs: 507000000
  frame_id: "world"
pose: 
  position: 
    x: -0.316385326085
    y: -0.221072080601
    z: 0.258436232289
  orientation: 
    x: -0.0542604107146
    y: -0.150215229373
    z: -0.00221819972279
    w: 0.98716071249
---
header: 
  seq: 413
  stamp: 
    secs: 818
    nsecs: 937000000
  frame_id: "world"
pose: 
  position: 
    x: -0.313659745965
    y: -0.220876802514
    z: 0.249897139497
  orientation: 
    x: -0.0674750702993
    y: -0.151524532426
    z: -0.00683687218174
    w: 0.9861240734
---
header: 
  seq: 414
  stamp: 
    secs: 819
    nsecs: 158000000
  frame_id: "world"
pose: 
  position: 
    x: -0.311274804977
    y: -0.221332609449
    z: 0.246973460597
  orientation: 
    x: -0.059721962063
    y: -0.156987429712
    z: -0.0101503912163
    w: 0.985740941484
---
header: 
  seq: 415
  stamp: 
    secs: 819
    nsecs: 449000000
  frame_id: "world"
pose: 
  position: 
    x: -0.313095279926
    y: -0.220672249961
    z: 0.239861024997
  orientation: 
    x: -0.0589692829897
    y: -0.157960887104
    z: -0.00494001197014
    w: 0.98567062353
---
header: 
  seq: 416
  stamp: 
    secs: 819
    nsecs: 788000000
  frame_id: "world"
pose: 
  position: 
    x: -0.304655400687
    y: -0.221030235381
    z: 0.237004864298
  orientation: 
    x: -0.0642710301647
    y: -0.163955295758
    z: -0.00907116191766
    w: 0.984330030882
---
header: 
  seq: 417
  stamp: 
    secs: 820
    nsecs: 266000000
  frame_id: "world"
pose: 
  position: 
    x: -0.302968269993
    y: -0.220840188154
    z: 0.227665717211
  orientation: 
    x: -0.0617465401125
    y: -0.161949433047
    z: -0.00873985312419
    w: 0.984826563861
---
header: 
  seq: 418
  stamp: 
    secs: 820
    nsecs: 624000000
  frame_id: "world"
pose: 
  position: 
    x: -0.298663876171
    y: -0.218724457383
    z: 0.219959929925
  orientation: 
    x: -0.0642891550576
    y: -0.160899359627
    z: -0.0044909175383
    w: 0.984864524832
---
header: 
  seq: 419
  stamp: 
    secs: 821
    nsecs: 133000000
  frame_id: "world"
pose: 
  position: 
    x: -0.294667131017
    y: -0.218554642266
    z: 0.210316275696
  orientation: 
    x: -0.0590197268503
    y: -0.159411530906
    z: -0.0131314161153
    w: 0.985358920175
---
header: 
  seq: 420
  stamp: 
    secs: 821
    nsecs: 606000000
  frame_id: "world"
pose: 
  position: 
    x: -0.290206919067
    y: -0.217809253664
    z: 0.201324233811
  orientation: 
    x: -0.058927863869
    y: -0.156892042405
    z: -0.00717150269336
    w: 0.985830088524
---
header: 
  seq: 421
  stamp: 
    secs: 822
    nsecs:  22000000
  frame_id: "world"
pose: 
  position: 
    x: -0.285558022821
    y: -0.217419311726
    z: 0.193552282736
  orientation: 
    x: -0.0581378026972
    y: -0.151085058842
    z: -0.00871819464197
    w: 0.986771145694
---
header: 
  seq: 422
  stamp: 
    secs: 822
    nsecs: 489000000
  frame_id: "world"
pose: 
  position: 
    x: -0.277928502416
    y: -0.216528782679
    z: 0.184305592198
  orientation: 
    x: -0.0588442067376
    y: -0.145597484019
    z: -0.00889377647082
    w: 0.987552344294
---
header: 
  seq: 423
  stamp: 
    secs: 822
    nsecs: 918000000
  frame_id: "world"
pose: 
  position: 
    x: -0.271495149263
    y: -0.216849027527
    z: 0.175758292548
  orientation: 
    x: -0.0590312645044
    y: -0.139789370473
    z: -0.00921385731874
    w: 0.988377127693
---
header: 
  seq: 424
  stamp: 
    secs: 823
    nsecs: 382000000
  frame_id: "world"
pose: 
  position: 
    x: -0.265131938949
    y: -0.216606368928
    z: 0.165506497138
  orientation: 
    x: -0.0588118219309
    y: -0.13317181593
    z: -0.00937102092467
    w: 0.989302087843
---
header: 
  seq: 425
  stamp: 
    secs: 823
    nsecs: 935000000
  frame_id: "world"
pose: 
  position: 
    x: -0.258433411612
    y: -0.21666055638
    z: 0.152996602176
  orientation: 
    x: -0.058629402699
    y: -0.125141122659
    z: -0.00965277503807
    w: 0.990358074887
---
header: 
  seq: 426
  stamp: 
    secs: 824
    nsecs: 461000000
  frame_id: "world"
pose: 
  position: 
    x: -0.247640851621
    y: -0.21275513308
    z: 0.143531828632
  orientation: 
    x: -0.0893706121425
    y: -0.122723613
    z: 0.00769928871556
    w: 0.988378737859
---
header: 
  seq: 427
  stamp: 
    secs: 824
    nsecs: 738000000
  frame_id: "world"
pose: 
  position: 
    x: -0.247844126284
    y: -0.213914908905
    z: 0.142973369525
  orientation: 
    x: -0.070234396304
    y: -0.124295204338
    z: -0.00630087190864
    w: 0.989736394586
---
header: 
  seq: 428
  stamp: 
    secs: 825
    nsecs:  18000000
  frame_id: "world"
pose: 
  position: 
    x: -0.247353109445
    y: -0.214319990403
    z: 0.142815024148
  orientation: 
    x: -0.0655341168504
    y: -0.127826081309
    z: -0.00310949812548
    w: 0.989624223373
---
header: 
  seq: 429
  stamp: 
    secs: 825
    nsecs: 330000000
  frame_id: "world"
pose: 
  position: 
    x: -0.243494412759
    y: -0.21308428529
    z: 0.147023731384
  orientation: 
    x: -0.0609889420876
    y: -0.131739168761
    z: -0.0071908052708
    w: 0.989380327618
---
header: 
  seq: 430
  stamp: 
    secs: 825
    nsecs: 640000000
  frame_id: "world"
pose: 
  position: 
    x: -0.241769961493
    y: -0.212137251741
    z: 0.149340739038
  orientation: 
    x: -0.0543596756651
    y: -0.133149146112
    z: -0.00782297632567
    w: 0.989573206788
---
header: 
  seq: 431
  stamp: 
    secs: 826
    nsecs:  47000000
  frame_id: "world"
pose: 
  position: 
    x: -0.232306254834
    y: -0.209401018641
    z: 0.155867794482
  orientation: 
    x: -0.0543833320754
    y: -0.139268901585
    z: -0.00464936880295
    w: 0.988749214722
---
header: 
  seq: 432
  stamp: 
    secs: 826
    nsecs: 518000000
  frame_id: "world"
pose: 
  position: 
    x: -0.220066155087
    y: -0.206483178595
    z: 0.160830794285
  orientation: 
    x: -0.0594887274589
    y: -0.141304732682
    z: -0.00845896344156
    w: 0.988140936185
---
header: 
  seq: 433
  stamp: 
    secs: 827
    nsecs:  81000000
  frame_id: "world"
pose: 
  position: 
    x: -0.212827420809
    y: -0.204338628417
    z: 0.164363170866
  orientation: 
    x: -0.0570980058418
    y: -0.147258324528
    z: -0.0044261555851
    w: 0.987438713406
---
header: 
  seq: 434
  stamp: 
    secs: 827
    nsecs: 406000000
  frame_id: "world"
pose: 
  position: 
    x: -0.204855752531
    y: -0.20002086358
    z: 0.168694878198
  orientation: 
    x: -0.0552280429278
    y: -0.14748944243
    z: -0.00589259757717
    w: 0.987502913889
---
header: 
  seq: 435
  stamp: 
    secs: 827
    nsecs: 687000000
  frame_id: "world"
pose: 
  position: 
    x: -0.196437174516
    y: -0.19740827909
    z: 0.174528359689
  orientation: 
    x: -0.0560160986519
    y: -0.151026976785
    z: -0.00655244350901
    w: 0.986919507589
---
header: 
  seq: 436
  stamp: 
    secs: 827
    nsecs: 956000000
  frame_id: "world"
pose: 
  position: 
    x: -0.191930620142
    y: -0.196374543034
    z: 0.174621061674
  orientation: 
    x: -0.0564436790904
    y: -0.148807662064
    z: -0.0109954057128
    w: 0.987192732882
---
header: 
  seq: 437
  stamp: 
    secs: 828
    nsecs: 355000000
  frame_id: "world"
pose: 
  position: 
    x: -0.182638680875
    y: -0.193532437884
    z: 0.181800679956
  orientation: 
    x: -0.0538312995271
    y: -0.149456611567
    z: 0.00273231205127
    w: 0.987298053741
---
header: 
  seq: 438
  stamp: 
    secs: 828
    nsecs: 794000000
  frame_id: "world"
pose: 
  position: 
    x: -0.178228663597
    y: -0.192949145752
    z: 0.182964924798
  orientation: 
    x: -0.0553384099922
    y: -0.155457866357
    z: -0.00544944441347
    w: 0.986276237026
---
header: 
  seq: 439
  stamp: 
    secs: 829
    nsecs: 268000000
  frame_id: "world"
pose: 
  position: 
    x: -0.166971574817
    y: -0.186824478785
    z: 0.194116524293
  orientation: 
    x: -0.05444175887
    y: -0.162550610768
    z: -0.00446348986937
    w: 0.985187023406
---
header: 
  seq: 440
  stamp: 
    secs: 829
    nsecs: 937000000
  frame_id: "world"
pose: 
  position: 
    x: -0.15159207704
    y: -0.18369779286
    z: 0.201771007445
  orientation: 
    x: -0.0534523476527
    y: -0.161204999209
    z: 0.000143541252571
    w: 0.98547236093
---
header: 
  seq: 441
  stamp: 
    secs: 830
    nsecs: 210000000
  frame_id: "world"
pose: 
  position: 
    x: -0.180561680673
    y: -0.16772318878
    z: 0.160959563303
  orientation: 
    x: -0.03587065898
    y: -0.129843996245
    z: -0.010237142934
    w: 0.990832495111
---
header: 
  seq: 442
  stamp: 
    secs: 830
    nsecs: 525000000
  frame_id: "world"
pose: 
  position: 
    x: -0.168812007615
    y: -0.167390796705
    z: 0.163856421359
  orientation: 
    x: -0.0405038652746
    y: -0.12625999357
    z: -0.0106996554936
    w: 0.991112187542
---
header: 
  seq: 443
  stamp: 
    secs: 830
    nsecs: 813000000
  frame_id: "world"
pose: 
  position: 
    x: -0.157019125487
    y: -0.166243985659
    z: 0.166241349479
  orientation: 
    x: -0.0454159428839
    y: -0.127736527945
    z: -0.0141881356178
    w: 0.990666174031
---
header: 
  seq: 444
  stamp: 
    secs: 831
    nsecs: 201000000
  frame_id: "world"
pose: 
  position: 
    x: -0.137882736592
    y: -0.16553825981
    z: 0.169952840758
  orientation: 
    x: -0.0471964035292
    y: -0.116915509714
    z: -0.01160795045
    w: 0.991951873111
---
header: 
  seq: 445
  stamp: 
    secs: 831
    nsecs: 679000000
  frame_id: "world"
pose: 
  position: 
    x: -0.123030551122
    y: -0.163762524392
    z: 0.172771307862
  orientation: 
    x: -0.0383563568686
    y: -0.110247393111
    z: -0.00561587421108
    w: 0.993147906486
---
header: 
  seq: 446
